[
  {
    "id": 1,
    "lat":42.078,
    "long":-113.724,
    "state":"ID",
    "name":"City of Rocks"
  },
  {
    "id": 2,
    "lat":48.509,
    "long":-120.66,
    "state":"WA",
    "name":"North Cascades"
  },
  {
    "id": 3,
    "lat":44.366,
    "long":-121.143,
    "state":"OR",
    "name":"Smith Rock"
  },
  {
    "id": 4,
    "lat":34.012,
    "long":-116.16,
    "state":"CA",
    "name":"Joshua Tree"
  },
  {
    "id": 5,
    "lat":37.744,
    "long":-119.599,
    "state":"CA",
    "name":"Yosemite"
  },
  {
    "id": 6,
    "lat":36.131,
    "long":-115.425,
    "state":"NV",
    "name":"Red Rocks"
  },
  {
    "id": 7,
    "lat":38.026,
    "long":-109.54,
    "state":"UT",
    "name":"Indian Creek"
  },
  {
    "id": 9,
    "lat":31.921,
    "long":-109.987,
    "state":"AZ",
    "name":"Cochise Stronghold"
  },
  {
    "id": 10,
    "lat":41.185,
    "long":-105.378,
    "state":"WY",
    "name":"Vedauwoo"
  },
  {
    "id": 11,
    "lat":46.853,
    "long":-121.76,
    "state":"WA",
    "name":"Mount Rainier"
  },
  {
    "id": 16,
    "lat":40.002,
    "long":-105.41,
    "state":"CO",
    "name":"Boulder Canyon"
  },
  {
    "id": 17,
    "lat":39.932,
    "long":-105.281,
    "state":"CO",
    "name":"Eldorado Canyon"
  },
  {
    "id": 18,
    "lat":43.741,
    "long":-110.803,
    "state":"WY",
    "name":"Grand Teton National Park"
  },
  {
    "id": 19,
    "lat":44.59,
    "long":-104.717,
    "state":"WY",
    "name":"Devil's Tower"
  }
]